{
  "organizations": [
    {
      "id": 1,
      "name": "65465",
      "coordinates": {
        "x": 5787.0,
        "y": 674.0
      },
      "creationDate": "Mar 23, 2023, 10:35:01 PM",
      "annualTurnover": 564.0,
      "employeesCount": 646,
      "type": "COMMERCIAL",
      "officalAddress": {
        "street": "46521",
        "zipCode": "asd"
      }
    },
    {
      "id": 2,
      "name": "Ker",
      "coordinates": {
        "x": 4.0,
        "y": 0.2
      },
      "creationDate": "Mar 23, 2023, 10:35:58 PM",
      "annualTurnover": -2.0,
      "employeesCount": 3,
      "type": "COMMERCIAL",
      "officalAddress": {
        "street": "444",
        "zipCode": "assdd"
      }
    },
    {
      "id": 3,
      "name": "lkjhdsa78",
      "coordinates": {
        "x": 54.0,
        "y": 554.0
      },
      "creationDate": "Mar 27, 2023, 5:55:38 PM",
      "annualTurnover": 654.0,
      "employeesCount": 654,
      "type": "COMMERCIAL",
      "officalAddress": {
        "street": "564",
        "zipCode": "45"
      }
    },
    {
      "id": 4,
      "name": "564",
      "coordinates": {
        "x": 88989.0,
        "y": 2132.0
      },
      "creationDate": "Apr 8, 2023, 5:32:36 PM",
      "annualTurnover": 231.0,
      "employeesCount": 3,
      "type": "COMMERCIAL",
      "officalAddress": {
        "street": "ker",
        "zipCode": "ker"
      }
    },
    {
      "id": 5,
      "name": "787878",
      "coordinates": {
        "x": 87878.0,
        "y": 6.0
      },
      "creationDate": "Apr 12, 2023, 7:56:30 AM",
      "annualTurnover": 546.0,
      "employeesCount": 54,
      "type": "COMMERCIAL",
      "officalAddress": {
        "street": "456",
        "zipCode": "644"
      }
    }
  ]
}